"country_id","country_name","region","latitude","longitude"
"1","United States","North America","37.0902","-95.7129"
"2","India","Asia","20.5937","78.9629"
"3","Germany","Europe","51.1657","10.4515"
"4","Brazil","South America","-14.235","-51.9253"
"5","Australia","Oceania","-25.2744","133.7751"
"6","Canada","North America","56.1304","-106.3468"
"7","China","Asia","35.8617","104.1954"
"8","South Africa","Africa","-30.5595","22.9375"
